City_ID,City,Country,Max Temp,Current Description,Lat,Lng,Hotel Name
0,Hailar,CN,68.09,clear sky,49.2,119.7,
1,Puerto Ayora,EC,71.08,clear sky,-0.7393,-90.3518,
2,Bethel,US,47.01,light rain,41.3712,-73.414,
3,Kamenka,RU,58.21,clear sky,51.3223,42.7678,
4,Busselton,AU,68.85,scattered clouds,-33.65,115.3333,
5,Kapaa,US,76.98,scattered clouds,22.0752,-159.319,
6,Eureka,US,48.92,broken clouds,40.8021,-124.1637,
7,Esperance,AU,78.64,overcast clouds,-33.8667,121.9,
8,Port Lincoln,AU,59.54,overcast clouds,-34.7333,135.8667,
9,Ushuaia,AR,46.06,few clouds,-54.8,-68.3,
10,Taltal,CL,59.63,scattered clouds,-25.4,-70.4833,
11,Rosetta,EG,74.03,few clouds,31.4044,30.4164,
12,Albany,US,43.57,overcast clouds,42.6001,-73.9662,
13,Olinda,BR,73.13,scattered clouds,-8.0089,-34.8553,
14,Moses Lake,US,45.28,clear sky,47.1301,-119.2781,
15,Brody,UA,63.1,few clouds,50.0879,25.1503,
16,Rio Verde De Mato Grosso,BR,60.33,clear sky,-18.9181,-54.8442,
18,Zyryanskoye,RU,43.36,overcast clouds,56.8306,86.6258,
19,Jamestown,US,44.24,clear sky,42.097,-79.2353,
20,Matay,EG,86.77,broken clouds,28.419,30.7792,
21,Tasiilaq,GL,30.36,overcast clouds,65.6145,-37.6368,
22,Hay River,CA,31.98,snow,60.8156,-115.7999,
23,Rikitea,PF,77.13,clear sky,-23.1203,-134.9692,
24,Karratha,AU,84.04,overcast clouds,-20.7377,116.8463,
25,Hermagor,AT,60.33,overcast clouds,46.6272,13.3672,
26,Dunedin,NZ,58.8,overcast clouds,-45.8742,170.5036,
27,Bredasdorp,ZA,59.32,broken clouds,-34.5322,20.0403,
28,Saint-Joseph,RE,79.18,scattered clouds,-21.3667,55.6167,
29,Bubaque,GW,76.64,few clouds,11.2833,-15.8333,
30,Tuktoyaktuk,CA,31.35,overcast clouds,69.4541,-133.0374,
31,Burlington,US,44.71,light rain,39.8835,-74.6413,
32,Alice Springs,AU,69.22,few clouds,-23.7,133.8833,
33,Sioux Lookout,CA,48.27,overcast clouds,50.1001,-91.917,
35,Hilo,US,74.28,light rain,19.7297,-155.09,
36,Nikolskoye,RU,45.88,overcast clouds,59.7035,30.7861,
38,Igrim,RU,52.81,broken clouds,63.1906,64.4162,
39,Cidreira,BR,61.52,clear sky,-30.1811,-50.2056,
40,Rovaniemi,FI,40.41,clear sky,66.5,25.7167,
41,Lebu,CL,52.97,few clouds,-37.6167,-73.65,
42,Hithadhoo,MV,84.31,scattered clouds,-0.6,73.0833,
43,East London,ZA,61.74,few clouds,-33.0153,27.9116,
46,Warrnambool,AU,55.29,overcast clouds,-38.3833,142.4833,
47,Khudumelapye,BW,70.29,broken clouds,-23.8833,24.75,
49,Cap-Aux-Meules,CA,35.62,clear sky,47.3821,-61.8597,
50,New Norfolk,AU,54.9,few clouds,-42.7826,147.0587,
51,Half Moon Bay,US,53.51,haze,37.4636,-122.4286,
52,Bluff,NZ,55.8,overcast clouds,-46.6,168.3333,
53,Scarborough,GB,50.32,broken clouds,54.2797,-0.4044,
54,Mataura,NZ,55.47,overcast clouds,-46.1927,168.8643,
55,Tautira,PF,80.73,few clouds,-17.7333,-149.15,
58,Hermanus,ZA,56.8,overcast clouds,-34.4187,19.2345,
59,Alyangula,AU,84.07,broken clouds,-13.8483,136.4192,
60,Le Port,RE,82.36,clear sky,-20.9373,55.2919,
61,Athabasca,CA,36.01,overcast clouds,54.7169,-113.2854,
62,Bandar-E Anzali,IR,59.11,broken clouds,37.4727,49.4622,
63,Port Alfred,ZA,61.18,overcast clouds,-33.5906,26.891,
64,Aklavik,CA,30.96,scattered clouds,68.2191,-135.0107,
65,Avarua,CK,80.65,broken clouds,-21.2078,-159.775,
66,Vaini,TO,73.56,few clouds,-21.2,-175.2,
67,Punta Arenas,CL,44.71,broken clouds,-53.15,-70.9167,
68,Nyurba,RU,41.58,light rain,63.2842,118.3319,
70,Lucea,JM,76.86,clear sky,18.451,-78.1736,
71,Padang,ID,89.65,overcast clouds,-0.9492,100.3543,
72,Carnarvon,AU,80.67,few clouds,-24.8667,113.6333,
73,Nishihara,JP,78.08,light intensity shower rain,26.1842,127.7558,
74,Chumikan,RU,46.27,clear sky,54.7183,135.315,
76,Nisia Floresta,BR,75.58,broken clouds,-6.0911,-35.2086,
77,Faanui,PF,82.17,light rain,-16.4833,-151.75,
78,Bonthe,SL,74.21,light rain,7.5264,-12.505,
79,Thompson,CA,55.56,broken clouds,55.7435,-97.8558,
80,Bandarbeyla,SO,89.73,clear sky,9.4942,50.8122,
82,Sitka,US,44.49,clear sky,57.0531,-135.33,
84,Price,US,52.86,clear sky,39.5994,-110.8107,
86,Puerto Escondido,MX,79.99,scattered clouds,15.85,-97.0667,
87,Sao Filipe,CV,72.23,clear sky,14.8961,-24.4956,
88,Saint Anthony,US,62.82,scattered clouds,45.0205,-93.218,
89,Srivardhan,IN,88.36,broken clouds,18.0333,73.0167,
90,Fortuna,US,48.65,overcast clouds,40.5982,-124.1573,
92,Nanortalik,GL,37.17,overcast clouds,60.1432,-45.2371,
93,Kodiak,US,45.91,clear sky,57.79,-152.4072,
94,Quatre Cocos,MU,83.08,few clouds,-20.2078,57.7625,
95,Yurla,RU,59.65,scattered clouds,59.3259,54.3223,
96,Lompoc,US,51.69,clear sky,34.6391,-120.4579,
97,Cape Town,ZA,62.11,clear sky,-33.9258,18.4232,
98,Riyadh,SA,84.34,clear sky,24.6877,46.7219,
99,Puerto Baquerizo Moreno,EC,71.38,clear sky,-0.9,-89.6,
101,Te Anau,NZ,53.24,overcast clouds,-45.4167,167.7167,
102,Comodoro Rivadavia,AR,69.66,clear sky,-45.8667,-67.5,
103,Norman Wells,CA,39.24,broken clouds,65.282,-126.8329,
104,Cape Girardeau,US,51.39,clear sky,37.3834,-89.7168,
105,Saint George,US,75.79,clear sky,37.1041,-113.5841,
106,Broken Hill,AU,60.51,overcast clouds,-31.95,141.4333,
107,La Maddalena,IT,66.36,few clouds,41.2142,9.4083,
108,Umm Bab,QA,83.79,clear sky,25.2142,50.8072,
109,Sena Madureira,BR,69.51,few clouds,-9.0656,-68.6569,
110,Petropavlovsk-Kamchatskiy,RU,54.19,clear sky,53.0452,158.6483,
111,Kerrville,US,77.54,overcast clouds,30.0474,-99.1403,
112,Yulara,AU,69.64,few clouds,-25.2406,130.9889,
113,Isangel,VU,75.09,clear sky,-19.55,169.2667,
114,Bowen,AU,74.5,overcast clouds,-20.0167,148.2333,
115,Nicoya,CR,77.68,overcast clouds,10.1483,-85.452,
116,Atuona,PF,77.86,light rain,-9.8,-139.0333,
117,Goderich,CA,42.91,clear sky,43.7501,-81.7165,
118,Sao Jose Da Coroa Grande,BR,75.4,broken clouds,-8.8978,-35.1478,
119,Ixtapa,MX,74.23,clear sky,20.7,-105.2,
120,Macamic,CA,34.3,light snow,48.7502,-78.9996,
121,Roma,US,42.08,clear sky,43.2128,-75.4557,
122,Komsomolskiy,UZ,88.52,clear sky,40.4272,71.7189,
123,Ca Mau,VN,88.81,overcast clouds,9.1769,105.15,
125,Acapulco,MX,78.62,few clouds,16.8634,-99.8901,
126,Myre,NO,38.01,light rain,69.1036,15.9492,
127,Petatlan,MX,74.68,overcast clouds,17.5167,-101.2667,
128,Labuhan,ID,86.61,overcast clouds,-6.8844,112.2051,
130,Camacha,PT,58.42,broken clouds,33.0833,-16.3333,
132,Araouane,ML,86.22,clear sky,18.9048,-3.5265,
133,Muros,ES,58.68,overcast clouds,42.7762,-9.0603,
134,Hastings,GB,56.39,few clouds,50.8552,0.5729,
135,Vardo,NO,31.98,overcast clouds,70.3705,31.1107,
136,Touros,BR,74.41,overcast clouds,-5.1989,-35.4608,
137,Ribeira Grande,PT,55.8,few clouds,38.5167,-28.7,
138,Erenhot,CN,64.9,clear sky,43.6475,111.9767,
139,Taoudenni,ML,85.84,broken clouds,22.6783,-3.9836,
140,Floro,NO,44.96,few clouds,61.5996,5.0328,
141,Hobart,AU,55.26,few clouds,-42.8794,147.3294,
142,Yellowknife,CA,32.52,overcast clouds,62.456,-114.3525,
143,Cap Malheureux,MU,83.46,few clouds,-19.9842,57.6142,
144,Alta Floresta,BR,68.68,scattered clouds,-9.8756,-56.0861,
145,Kahului,US,75.85,few clouds,20.8947,-156.47,
146,Sambava,MG,82.36,light rain,-14.2667,50.1667,
147,Mahebourg,MU,83.25,scattered clouds,-20.4081,57.7,
148,Saint-Philippe,RE,80.19,light rain,-21.3585,55.7679,
149,Dano,BF,87.03,broken clouds,11.15,-3.0667,
150,Srednekolymsk,RU,30.97,overcast clouds,67.45,153.6833,
151,Merauke,ID,82.83,light rain,-8.4667,140.3333,
152,Torbay,CA,33.28,clear sky,47.6666,-52.7314,
153,Ust-Ishim,RU,58.95,overcast clouds,57.6935,71.1665,
154,Awbari,LY,75.0,clear sky,26.5921,12.7805,
155,Gornja Tuzla,BA,52.65,mist,44.5561,18.7614,
156,Klaksvik,FO,45.52,light rain,62.2266,-6.589,
157,Cayenne,GF,81.09,overcast clouds,4.9333,-52.3333,
158,Shingu,JP,69.71,few clouds,33.7333,135.9833,
159,Wajima,JP,61.48,clear sky,37.4,136.9,
160,Hofn,IS,44.8,overcast clouds,64.2539,-15.2082,
161,La Ronge,CA,44.85,overcast clouds,55.1001,-105.2842,
163,Atlantic City,US,46.02,overcast clouds,39.3643,-74.4229,
164,Mao,ES,66.76,clear sky,39.8885,4.2658,
165,Castro,BR,47.68,overcast clouds,-24.7911,-50.0119,
166,Portland,US,45.19,light rain,45.5234,-122.6762,
167,Wattegama,LK,88.92,overcast clouds,6.7989,81.4808,
168,Skibbereen,IE,53.11,broken clouds,51.55,-9.2667,
169,Senador Jose Porfirio,BR,73.62,overcast clouds,-2.5908,-51.9542,
170,Znamenskoye,RU,47.88,overcast clouds,57.1281,73.8282,
171,Shepsi,RU,56.35,overcast clouds,44.0361,39.1489,
172,Butaritari,KI,82.18,broken clouds,3.0707,172.7902,
173,Montepuez,MZ,77.5,scattered clouds,-13.1256,38.9997,
175,Vila Velha,BR,73.35,scattered clouds,-20.3297,-40.2925,
176,Nome,US,32.07,mist,64.5011,-165.4064,
177,Ada,US,40.91,scattered clouds,43.4166,-116.1262,
178,Magistralnyy,RU,48.43,overcast clouds,56.1725,107.4458,
179,Palu,ID,82.44,overcast clouds,-0.8917,119.8707,
180,Bengkulu,ID,85.84,overcast clouds,-3.8004,102.2655,
181,Beihai,CN,78.55,overcast clouds,21.4833,109.1,
182,Altay,CN,60.8,broken clouds,47.8667,88.1167,
183,Bambous Virieux,MU,83.21,scattered clouds,-20.3428,57.7575,
184,Logrono,ES,53.1,clear sky,42.4667,-2.45,
185,Caxito,AO,76.44,overcast clouds,-8.5785,13.6643,
186,Kavieng,PG,84.02,overcast clouds,-2.5744,150.7967,
187,Rothenbach,DE,54.75,overcast clouds,47.6167,9.9833,
188,Nemuro,JP,44.83,broken clouds,43.3236,145.575,
189,Lorengau,PG,84.2,scattered clouds,-2.0226,147.2712,
190,Remontnoye,RU,57.16,overcast clouds,46.5614,43.6501,
192,Lata,PT,69.03,overcast clouds,40.1629,-8.3327,
193,San Patricio,US,80.49,clear sky,28.017,-97.5169,
194,Olafsvik,IS,43.03,overcast clouds,64.8945,-23.7142,
195,Dali,CN,73.94,overcast clouds,25.7,100.1833,
196,Conakry,GN,79.97,overcast clouds,9.538,-13.6773,
197,Ancud,CL,55.09,light rain,-41.8697,-73.8203,
198,Sorland,NO,37.26,light rain,67.667,12.6934,
199,Teya,RU,32.32,overcast clouds,60.3778,92.6267,
200,Killybegs,IE,54.97,broken clouds,54.6333,-8.45,
201,Port Washington,US,47.8,overcast clouds,40.8257,-73.6982,
202,Provideniya,RU,31.57,snow,64.3833,-173.3,
203,Charleston,US,65.01,few clouds,32.7766,-79.9309,
204,Abnub,EG,73.62,few clouds,27.2696,31.1511,
205,Sept-Iles,CA,30.72,clear sky,50.2001,-66.3821,
206,Katsuura,JP,57.69,overcast clouds,35.1333,140.3,
207,Ngunguru,NZ,59.18,clear sky,-35.6167,174.5,
208,Broome,US,39.67,clear sky,42.2506,-75.833,
209,Sinop,TR,46.83,overcast clouds,41.7711,34.8709,
210,Arraial Do Cabo,BR,70.88,broken clouds,-22.9661,-42.0278,
211,Artvin,TR,48.69,overcast clouds,41.1667,41.8333,
212,Narsaq,GL,52.02,overcast clouds,60.9167,-46.05,
215,Zhigansk,RU,34.77,overcast clouds,66.7697,123.3711,
216,Juneau,US,42.8,broken clouds,58.3019,-134.4197,
217,Oistins,BB,80.69,few clouds,13.0667,-59.5333,
218,Madison Heights,US,47.82,clear sky,42.4859,-83.1052,
219,Ostrovnoy,RU,35.26,scattered clouds,68.0531,39.5131,
220,Geraldton,AU,84.61,clear sky,-28.7667,114.6,
221,Balikpapan,ID,83.39,light rain,-1.2675,116.8289,
222,Conde,BR,72.86,clear sky,-7.2597,-34.9075,
223,Codrington,AU,54.72,overcast clouds,-38.2667,141.9667,
225,Yuanping,CN,62.56,overcast clouds,38.7153,112.7575,
226,Tombouctou,ML,83.43,clear sky,20.0,-3.0,
227,Guerrero Negro,MX,60.57,broken clouds,27.9769,-114.0611,
228,Buenos Aires,AR,62.33,clear sky,-34.6132,-58.3772,
229,Flin Flon,CA,49.8,overcast clouds,54.7682,-101.865,
230,Adrar,MR,86.32,clear sky,20.5022,-10.0711,
232,Pacific Grove,US,51.91,clear sky,36.6177,-121.9166,
234,Newcastle,AU,65.08,clear sky,-32.9272,151.7765,
236,Saint-Pierre,RE,83.88,overcast clouds,-21.3393,55.4781,
237,Morehead,US,49.98,clear sky,37.2711,-87.1764,
239,Gold Coast,AU,70.0,overcast clouds,-28.0,153.4333,
241,Harper,LR,81.14,light rain,4.375,-7.7169,
242,Iquitos,PE,75.24,broken clouds,-3.7481,-73.2472,
243,Moose Factory,CA,37.4,clear sky,51.2585,-80.6094,
244,Tiarei,PF,78.82,clear sky,-17.5333,-149.3333,
245,Mogadishu,SO,87.67,scattered clouds,2.0371,45.3438,
246,Avera,US,55.45,clear sky,33.194,-82.5271,
247,Laurel,US,45.86,overcast clouds,39.0993,-76.8483,
248,Ambulu,ID,84.9,moderate rain,-8.345,113.6058,
249,Lahat,ID,89.2,overcast clouds,-3.8,103.5333,
250,Victoria,HK,82.45,overcast clouds,22.2855,114.1577,
251,Kirkuk,IQ,72.52,clear sky,35.4681,44.3922,
252,Kimbe,PG,79.97,light rain,-5.5502,150.1429,
253,Coihueco,CL,41.74,clear sky,-36.6167,-71.8333,
254,Sumbe,AO,79.34,overcast clouds,-11.2061,13.8437,
255,Svetlogorsk,BY,57.31,overcast clouds,52.6333,29.7333,
256,Porto Novo,BJ,82.22,broken clouds,6.4965,2.6036,
257,Bakchar,RU,46.51,scattered clouds,57.0186,82.0711,
258,Hami,CN,81.72,overcast clouds,42.8,93.45,
259,Warwick,US,48.24,overcast clouds,41.7001,-71.4162,
260,Port Augusta,AU,60.84,clear sky,-32.5,137.7667,
261,Lethem,GY,75.18,overcast clouds,3.3803,-59.7968,
262,Tuatapere,NZ,53.46,overcast clouds,-46.1333,167.6833,
263,Jingcheng,CN,79.0,clear sky,32.0142,120.2625,
264,Billings,US,47.97,overcast clouds,45.7833,-108.5007,
265,Fasa,IR,85.24,clear sky,28.9383,53.6482,
266,Port Elizabeth,ZA,62.31,broken clouds,-33.918,25.5701,
268,Papayal,PE,69.24,overcast clouds,-4.0761,-80.7361,
269,Dingle,PH,88.16,broken clouds,10.9995,122.6711,
271,Sagua La Grande,CU,72.59,clear sky,22.8067,-80.0756,
273,Guaruja,BR,68.9,overcast clouds,-23.9931,-46.2564,
274,Bairiki,KI,80.6,few clouds,1.3292,172.9752,
275,Kaitangata,NZ,53.82,overcast clouds,-46.2817,169.8464,
276,Constitucion,CL,52.41,clear sky,-35.3333,-72.4167,
277,San Jose,US,53.47,few clouds,37.3394,-121.895,
278,Maldonado,UY,55.22,broken clouds,-34.6667,-54.9167,
279,Weyburn,CA,44.82,broken clouds,49.6668,-103.8511,
280,Cordoba,AR,63.45,clear sky,-31.4135,-64.1811,
281,Jinxiang,CN,68.79,overcast clouds,27.4327,120.6062,
282,Urucui,BR,70.21,overcast clouds,-7.2294,-44.5561,
283,Damietta,EG,69.69,few clouds,31.4165,31.8133,
284,Coquimbo,CL,55.13,overcast clouds,-29.9533,-71.3436,
285,San Carlos De Bariloche,AR,53.35,scattered clouds,-41.1456,-71.3082,
286,Souillac,MU,80.98,scattered clouds,-20.5167,57.5167,
287,Odweyne,SO,85.32,clear sky,9.4092,45.064,
288,College,US,42.78,broken clouds,64.8569,-147.8028,
289,Sorong,ID,84.74,scattered clouds,-0.8833,131.25,
290,Balabac,PH,85.55,few clouds,7.9868,117.0645,
291,Villarrica,PY,54.52,clear sky,-25.75,-56.4333,
292,Varhaug,NO,47.86,broken clouds,58.6147,5.6457,
293,Cabo San Lucas,MX,75.61,clear sky,22.8909,-109.9124,
294,Vostok,RU,40.39,overcast clouds,46.4856,135.8833,
295,Sao Joao Da Barra,BR,66.87,clear sky,-21.6403,-41.0511,
296,Leshukonskoye,RU,49.01,overcast clouds,64.8989,45.7622,
297,Camacupa,AO,71.19,clear sky,-12.0167,17.4833,
298,Namatanai,PG,82.87,scattered clouds,-3.6667,152.4333,
299,Lisakovsk,KZ,58.53,overcast clouds,52.5369,62.4936,
300,Mehamn,NO,32.0,overcast clouds,71.0357,27.8492,
301,Mangan,IN,81.37,overcast clouds,27.5167,88.5333,
302,Lodja,CD,81.91,overcast clouds,-3.4833,23.4333,
304,Fort Saint James,CA,34.48,overcast clouds,54.4333,-124.25,
305,Qaqortoq,GL,38.73,overcast clouds,60.7167,-46.0333,
306,Luz,BR,64.06,broken clouds,-19.8014,-45.6856,
307,Staryy Nadym,RU,32.88,overcast clouds,65.6118,72.6842,
308,Dongying,CN,51.24,light rain,37.4564,118.4856,
309,Kruisfontein,ZA,59.88,overcast clouds,-34.0033,24.7314,
310,Sabang,ID,84.09,broken clouds,5.8933,95.3214,
311,Ossora,RU,36.5,broken clouds,59.2353,163.0719,
312,Smithers,CA,43.12,overcast clouds,54.7804,-127.1743,
313,Great Yarmouth,GB,53.94,clear sky,52.6083,1.7305,
314,Sobradinho,BR,66.87,clear sky,-12.8333,-39.1,
315,Chornoliztsi,UA,61.97,overcast clouds,48.8303,24.8958,
319,Casablanca,MA,62.94,few clouds,33.5928,-7.6192,
320,Bull Savanna,JM,75.13,broken clouds,17.8868,-77.5902,
321,Lubango,AO,71.13,scattered clouds,-14.9172,13.4925,
322,Abha,SA,79.05,clear sky,18.2164,42.5053,
323,Port Moresby,PG,85.42,haze,-9.4431,147.1797,
324,Anadyr,RU,34.3,light shower snow,64.75,177.4833,
325,Kurumkan,RU,56.73,overcast clouds,54.3,110.3,
326,Rosita,NI,72.64,overcast clouds,13.9268,-84.4032,
327,Huarmey,PE,65.57,broken clouds,-10.0681,-78.1522,
328,Bulancak,TR,53.42,broken clouds,40.9372,38.2291,
329,Bayeux,BR,74.03,clear sky,-7.125,-34.9322,
330,Haines Junction,CA,35.55,overcast clouds,60.7522,-137.5108,
331,Etaples,FR,59.16,overcast clouds,50.5219,1.6332,
332,Rio Grande,BR,59.02,clear sky,-32.035,-52.0986,
333,Houma,US,75.0,mist,29.5958,-90.7195,
334,Oudtshoorn,ZA,57.56,overcast clouds,-33.5907,22.2014,
335,Mingshui,CN,51.8,heavy intensity rain,36.7167,117.5,
336,Tyukhtet,RU,40.87,overcast clouds,56.5389,89.3011,
337,Biak,ID,82.24,overcast clouds,-0.9131,122.8766,
338,Lahaina,US,75.81,overcast clouds,20.8783,-156.6825,
339,Gueret,FR,56.7,few clouds,46.1667,1.8667,
341,Amapa,BR,71.62,overcast clouds,1.0,-52.0,
342,Elban,RU,47.43,overcast clouds,50.1018,136.5094,
343,Peniche,PT,62.94,scattered clouds,39.3558,-9.3811,
344,Estelle,US,78.8,clear sky,29.8458,-90.1067,
345,Severo-Kurilsk,RU,42.24,overcast clouds,50.6789,156.125,
347,Surt,LY,69.42,scattered clouds,31.2089,16.5887,
348,Korla,CN,75.06,scattered clouds,41.7597,86.1469,
349,Fairbanks,US,42.8,overcast clouds,64.8378,-147.7164,
350,Mitsamiouli,KM,86.29,few clouds,-11.3847,43.2844,
351,Atar,MR,88.66,overcast clouds,20.5169,-13.0499,
352,Pemangkat,ID,84.83,light rain,1.1667,108.9667,
353,Phan Thiet,VN,86.65,overcast clouds,10.9333,108.1,
354,Zarate,AR,54.84,few clouds,-34.0981,-59.0286,
355,Chernyshevskiy,RU,35.83,overcast clouds,63.0128,112.4714,
356,Bol,TD,81.75,broken clouds,13.4586,14.7147,
357,Lagoa,PT,59.86,scattered clouds,39.05,-27.9833,
358,Soe,ID,75.36,broken clouds,-9.8607,124.284,
359,Ishigaki,JP,80.73,broken clouds,24.3448,124.1572,
360,Zyryanka,RU,35.06,overcast clouds,65.75,150.85,
361,Cabedelo,BR,74.07,broken clouds,-6.9811,-34.8339,
362,Sakaiminato,JP,64.33,broken clouds,35.55,133.2333,
363,San Lorenzo,PY,52.74,clear sky,-25.3333,-57.5333,
364,San Alberto,CO,75.47,overcast clouds,7.7611,-73.3922,
365,Manica,FR,56.14,scattered clouds,49.0,-1.1667,
366,Rudnogorsk,RU,40.82,overcast clouds,57.2639,103.7519,
367,Palasa,IN,89.96,scattered clouds,18.7667,84.4167,
368,Caravelas,BR,75.51,overcast clouds,-17.7125,-39.2481,
370,Yar-Sale,RU,33.75,overcast clouds,66.8333,70.8333,
371,Lyngseidet,NO,35.6,overcast clouds,69.5763,20.2189,
373,Pinega,RU,45.9,overcast clouds,64.7001,43.3936,
374,Mendi,PG,60.89,overcast clouds,-6.1761,143.6513,
375,Halifax,CA,35.22,overcast clouds,44.6453,-63.5724,
376,Inuvik,CA,38.16,few clouds,68.3499,-133.7218,
377,Bathsheba,BB,81.21,few clouds,13.2167,-59.5167,
378,Alofi,NU,76.89,overcast clouds,-19.0595,-169.9187,
379,Tiznit,MA,81.93,scattered clouds,29.5833,-9.5,
380,Sherbakul,RU,63.43,few clouds,54.6316,72.3963,
381,Yichun,CN,57.02,clear sky,47.7,128.9,
382,Ziro,IN,72.34,broken clouds,27.6333,93.8333,
383,Alakurtti,RU,37.78,light rain,66.9672,30.3491,
384,Nara,JP,72.77,broken clouds,34.6851,135.8049,
386,Pathein,MM,83.1,moderate rain,16.7833,94.7333,
387,Verkhoyansk,RU,35.01,overcast clouds,67.5447,133.385,
388,Vanimo,PG,83.08,few clouds,-2.6741,141.3028,
389,Boa Vista,BR,76.98,broken clouds,2.8197,-60.6733,
390,Vilhena,BR,62.87,broken clouds,-12.7406,-60.1458,
391,Vestmanna,FO,43.72,light intensity drizzle,62.1564,-7.1664,
392,Georgiyevka,KZ,84.24,clear sky,43.0369,74.7114,
393,Tessalit,ML,82.87,clear sky,20.1986,1.0114,
394,Wynyard,AU,52.99,clear sky,-41.0,145.7167,
395,Harrisonburg,US,43.18,overcast clouds,38.4496,-78.8689,
396,Mount Gambier,AU,57.11,broken clouds,-37.8333,140.7667,
397,Tateyama,JP,60.76,overcast clouds,34.9833,139.8667,
398,Tubuala,PA,80.56,few clouds,9.5167,-79.0333,
399,Mezhdurechensk,RU,48.27,few clouds,53.6942,88.0603,
400,Ponta Do Sol,PT,66.0,overcast clouds,32.6667,-17.1,
401,Bazaliya,UA,57.56,overcast clouds,49.7127,26.4733,
402,Havelock,US,57.15,overcast clouds,34.8791,-76.9013,
403,Bemidji,US,56.17,broken clouds,47.4736,-94.8803,
404,Kauswagan,PH,83.32,overcast clouds,8.1917,124.0847,
405,Mar Del Plata,AR,56.95,clear sky,-38.0023,-57.5575,
406,Shimoda,JP,64.76,overcast clouds,34.6667,138.95,
407,Luganville,VU,79.12,overcast clouds,-15.5333,167.1667,
408,Namibe,AO,75.81,clear sky,-15.1961,12.1522,
409,Chuy,UY,53.92,scattered clouds,-33.6971,-53.4616,
410,Kavaratti,IN,84.9,scattered clouds,10.5669,72.642,
411,Neftcala,AZ,60.42,overcast clouds,39.3742,49.2472,
412,Voh,NC,70.79,broken clouds,-20.9667,164.7,
413,Port Hardy,CA,44.6,light intensity shower rain,50.6996,-127.4199,
415,Bereznik,RU,59.0,overcast clouds,62.8551,42.7072,
416,Ronne,DK,49.91,scattered clouds,55.1009,14.7066,
417,Rafaela,AR,53.01,overcast clouds,-31.2503,-61.4867,
418,Maarianhamina,AX,46.26,clear sky,60.0973,19.9348,
419,Mangrol,IN,89.58,clear sky,21.1167,70.1167,
420,Monte Carmelo,BR,65.7,broken clouds,-18.7247,-47.4986,
421,Los Llanos De Aridane,ES,62.35,few clouds,28.6585,-17.9182,
422,Naryan-Mar,RU,39.34,overcast clouds,67.6713,53.087,
423,Dakar,SN,69.93,clear sky,14.6937,-17.4441,
424,Newnan,US,56.71,broken clouds,33.3807,-84.7997,
425,Uray,RU,63.99,few clouds,60.1247,64.7758,
426,Vallenar,CL,53.17,overcast clouds,-28.5708,-70.7581,
427,Ahuimanu,US,74.91,broken clouds,21.4447,-157.8378,
428,Necochea,AR,59.85,scattered clouds,-38.5473,-58.7368,
429,Gigmoto,PH,84.52,clear sky,13.7796,124.39,
430,Cockburn Town,TC,79.45,clear sky,21.4612,-71.1419,
431,Bjerkvik,NO,34.0,light snow,68.5597,17.5189,
432,Rafsanjan,IR,84.45,overcast clouds,30.4067,55.9939,
434,Harrison,US,68.07,clear sky,30.4091,-89.0436,
435,Morondava,MG,80.67,clear sky,-20.2833,44.2833,
436,Artyom,AZ,59.14,scattered clouds,40.4723,50.333,
437,Westport,US,48.02,overcast clouds,41.1415,-73.3579,
439,Saint-Georges,GD,78.6,overcast clouds,12.0564,-61.7485,
440,Impfondo,CG,84.56,overcast clouds,1.6381,18.0667,
441,Zhezkazgan,KZ,53.58,scattered clouds,47.8043,67.7144,
442,Beloye,UA,59.52,few clouds,48.4952,39.0505,
443,Asau,RO,62.96,few clouds,46.4333,26.4,
444,Lithakia,GR,67.37,few clouds,37.7167,20.8333,
445,Pavelets,RU,59.58,scattered clouds,53.7883,39.246,
446,Champerico,GT,82.2,overcast clouds,14.3,-91.9167,
447,Tulum,MX,79.5,clear sky,20.2167,-87.4667,
448,Lujan,AR,57.94,clear sky,-34.5703,-59.105,
449,Kolbermoor,DE,56.86,overcast clouds,47.85,12.0667,
450,Laredo,US,77.29,broken clouds,27.5064,-99.5075,
451,Chicama,PE,59.54,broken clouds,-7.8447,-79.1469,
452,Manacapuru,BR,74.25,heavy intensity rain,-3.2997,-60.6206,
453,Mabay,PH,84.4,moderate rain,6.0577,124.4666,
454,Mayskiy,RU,62.01,overcast clouds,47.6931,40.1025,
455,Montes Altos,BR,70.14,broken clouds,-5.8333,-47.0667,
456,Rodrigues Alves,BR,69.15,clear sky,-7.738,-72.6509,
458,Safranbolu,TR,60.06,scattered clouds,41.2508,32.6942,
459,Gimbi,ET,68.56,overcast clouds,9.1667,35.8333,
460,Hun,LY,73.67,clear sky,29.1268,15.9477,
461,Airai,TL,67.01,broken clouds,-8.9266,125.4092,
462,Brigantine,US,46.02,overcast clouds,39.4101,-74.3646,
463,Umm Lajj,SA,87.26,clear sky,25.0213,37.2685,
464,Balkhash,KZ,65.01,clear sky,46.844,74.9804,
465,Wuwei,CN,56.75,overcast clouds,37.9281,102.6414,
466,Ribas Do Rio Pardo,BR,55.63,clear sky,-20.4431,-53.7592,
467,Kewanee,US,52.79,overcast clouds,41.2456,-89.9248,
468,Erdenet,MN,75.09,scattered clouds,49.0333,104.0833,
469,Plyussa,RU,49.01,overcast clouds,58.4308,29.3654,
470,Orshanka,RU,59.85,scattered clouds,56.9161,47.8933,
471,Faro,PT,70.97,clear sky,37.0194,-7.9322,
472,Husavik,IS,41.59,overcast clouds,66.0449,-17.3389,
473,El Alto,PE,67.82,broken clouds,-4.2714,-81.2147,
474,Kandrian,PG,80.98,light rain,-6.2167,149.55,
475,Krasnoshchekovo,RU,51.49,clear sky,51.6708,82.7289,
476,Gat,IL,76.78,clear sky,31.61,34.7642,
477,Hongjiang,CN,79.74,scattered clouds,27.11,109.9956,
478,Spring Valley,US,75.15,dust,36.108,-115.245,
479,College Park,US,46.74,light intensity drizzle,38.9807,-76.9369,
480,Verkhnyaya Inta,RU,50.0,overcast clouds,65.9811,60.3094,
481,Kamina,CD,76.84,overcast clouds,-8.7386,24.9906,
482,Shasta Lake,US,52.52,clear sky,40.6804,-122.3708,
483,Salalah,OM,87.89,few clouds,17.0151,54.0924,
485,Mahibadhoo,MV,84.2,overcast clouds,3.7833,72.9667,
486,Mirnyy,RU,35.24,overcast clouds,62.5353,113.9611,
487,Auki,SB,79.16,scattered clouds,-8.7676,160.7034,
488,Neiafu,TO,79.38,overcast clouds,-18.65,-173.9833,
489,Tondano,ID,77.09,overcast clouds,1.3038,124.9112,
490,Port Macquarie,AU,57.88,clear sky,-31.4333,152.9167,
491,Tecoanapa,MX,78.24,overcast clouds,16.5167,-98.75,
492,Hamilton,US,51.89,clear sky,39.1834,-84.5333,
493,Palafrugell,ES,71.44,few clouds,41.9174,3.1631,
494,Port Hawkesbury,CA,30.58,clear sky,45.6169,-61.3485,
495,Kieta,PG,80.06,light rain,-6.2167,155.6333,
496,Mastic Beach,US,47.98,overcast clouds,40.7668,-72.8521,
497,Copiapo,CL,55.09,broken clouds,-27.3667,-70.3333,
498,Sungaipenuh,ID,79.59,moderate rain,-2.0833,101.3833,
499,Yatou,CN,50.59,overcast clouds,37.15,122.3833,
501,Abu Samrah,SY,68.2,clear sky,35.3029,37.1841,
502,Flagstaff,US,60.46,clear sky,35.1981,-111.6513,
503,Upington,ZA,52.18,scattered clouds,-28.4478,21.2561,
504,Aksarka,RU,34.83,overcast clouds,66.5606,67.7975,
505,Pereira Barreto,BR,58.12,clear sky,-20.6383,-51.1092,
507,Nyazepetrovsk,RU,59.92,clear sky,56.0531,59.6028,
509,Stokmarknes,NO,33.78,light snow,68.5646,14.9108,
510,Ahipara,NZ,59.59,scattered clouds,-35.1667,173.1667,
511,Coffs Harbour,AU,58.96,few clouds,-30.3,153.1333,
512,Shakawe,BW,77.56,clear sky,-18.3667,21.85,
513,Kurayoshi,JP,58.91,broken clouds,35.4333,133.8167,
514,Buchanan,LR,76.44,light rain,5.8808,-10.0467,
515,Chara,RU,56.8,overcast clouds,56.9064,118.2631,
516,Fredericksburg,US,47.21,drizzle,38.3032,-77.4605,
518,Djambala,CG,75.65,overcast clouds,-2.5447,14.7533,
519,Fort Beaufort,ZA,55.08,overcast clouds,-32.7748,26.6338,
520,Maputo,MZ,72.23,broken clouds,-25.9653,32.5892,
521,Kortkeros,RU,64.4,broken clouds,61.8106,51.5806,
522,Sladkovo,RU,63.16,scattered clouds,55.5284,70.3385,
523,Virtsu,EE,50.05,clear sky,58.5716,23.5115,
525,Mlowo,TZ,73.36,scattered clouds,-9.0,32.9833,
526,Bartica,GY,75.52,overcast clouds,6.4,-58.6167,
527,Sinnamary,GF,77.31,overcast clouds,5.3833,-52.95,
529,High Level,CA,33.91,light snow,58.5169,-117.136,
533,Bloomsburg,US,44.22,overcast clouds,41.0037,-76.4549,
534,Cacapava Do Sul,BR,46.71,clear sky,-30.5122,-53.4914,
535,Trincomalee,LK,88.0,heavy intensity rain,8.5711,81.2335,
536,Bratsk,RU,43.29,overcast clouds,56.1325,101.6142,
537,Polovinnoye,RU,62.42,broken clouds,54.7914,65.9864,
538,Lumeje,AO,77.34,scattered clouds,-11.55,20.7833,
539,Guira De Melena,CU,75.72,clear sky,22.7906,-82.5053,
540,Kidal,ML,88.97,few clouds,18.4411,1.4078,
541,Nioro,GM,78.46,clear sky,13.35,-15.75,
542,Plettenberg Bay,ZA,59.5,overcast clouds,-34.0527,23.3716,
543,Presidencia Roque Saenz Pena,AR,54.93,clear sky,-26.7852,-60.4388,
544,Dzhebariki-Khaya,RU,44.1,overcast clouds,62.2167,135.8,
545,Ondjiva,AO,74.62,clear sky,-17.0667,15.7333,
547,Kasama,ZM,72.64,overcast clouds,-10.2129,31.1808,
548,Kudahuvadhoo,MV,84.51,scattered clouds,2.6708,72.8944,
549,Lyaskelya,RU,47.19,broken clouds,61.7667,31.0167,
550,Mayo,US,47.03,overcast clouds,38.8876,-76.5119,
552,Elko,US,38.64,overcast clouds,41.0002,-115.5012,
553,Sheltozero,RU,40.96,overcast clouds,61.3667,35.3667,
554,Bonavista,CA,32.68,clear sky,48.6499,-53.1147,
555,Ellsworth,US,39.72,clear sky,44.5434,-68.4195,
556,Changping,CN,58.64,overcast clouds,40.2186,116.2197,
557,Fez,MA,68.25,clear sky,34.0372,-4.9998,
558,Inirida,CO,70.83,scattered clouds,3.8653,-67.9239,
559,Makat,KZ,56.07,overcast clouds,47.6469,53.3463,
560,Praxedis Guerrero,MX,72.57,clear sky,31.3667,-106.0167,
561,Kirensk,RU,46.54,overcast clouds,57.7853,108.1119,
562,Suoyarvi,RU,45.43,overcast clouds,62.0833,32.35,
563,Tilichiki,RU,32.32,overcast clouds,60.4667,166.1,
564,Bud,US,51.64,clear sky,39.447,-86.1758,
565,Gallup,US,63.36,clear sky,35.5281,-108.7426,
566,Laguna,US,56.39,clear sky,38.421,-121.4238,
567,Naze,JP,72.52,light rain,28.3667,129.4833,
568,Beloha,MG,82.42,clear sky,-25.1667,45.05,
570,Kozan,TR,72.12,clear sky,37.4552,35.8157,
571,Mandalgovi,MN,66.6,clear sky,45.7625,106.2708,
572,Dekernes,EG,81.45,scattered clouds,31.0876,31.595,
573,General Roca,AR,58.93,clear sky,-39.0333,-67.5833,
575,Santa Isabel Do Rio Negro,BR,72.05,overcast clouds,-0.4139,-65.0192,
576,Merrill,US,48.92,clear sky,45.1805,-89.6835,
577,Swan Hill,AU,55.49,broken clouds,-35.3378,143.5544,
578,Kargasok,RU,41.88,clear sky,59.0556,80.8572,
579,Casper,US,36.19,clear sky,42.8666,-106.3131,
580,Olavarria,AR,58.01,clear sky,-36.8927,-60.3225,
581,Akdepe,TM,78.89,overcast clouds,42.0551,59.3788,
583,Shenjiamen,CN,63.54,overcast clouds,29.9576,122.298,
584,Bacolod,PH,88.99,scattered clouds,10.6667,122.95,
585,Reconquista,AR,53.76,overcast clouds,-29.15,-59.65,
586,Quincy,US,46.85,overcast clouds,42.2529,-71.0023,
587,El Reten,CO,76.21,overcast clouds,10.6114,-74.2682,
588,Kupang,ID,85.19,overcast clouds,-10.1667,123.5833,
589,Xinzhi,CN,68.0,light rain,36.4989,111.7047,
590,Havoysund,NO,34.03,light snow,70.9963,24.6622,
591,Porto Recanati,IT,63.99,broken clouds,43.4365,13.6613,
593,Requena,ES,66.87,scattered clouds,39.4883,-1.1004,
594,Madina,GH,80.56,few clouds,5.6823,-0.1641,
595,Vagamo,NO,35.91,scattered clouds,61.8751,9.0967,
596,Muli,MV,84.16,scattered clouds,2.9167,73.5667,
598,Takoradi,GH,81.41,light rain,4.8845,-1.7554,
599,Roald,NO,47.75,few clouds,62.5833,6.1333,
600,Okhotsk,RU,40.5,clear sky,59.3833,143.3,
601,Mahon,ES,68.56,few clouds,39.8885,4.2658,
602,Kikwit,CD,81.0,overcast clouds,-5.041,18.8162,
603,Qobustan,AZ,61.63,overcast clouds,40.0824,49.412,
604,Bodden Town,KY,81.0,clear sky,19.2833,-81.25,
605,Stockbridge,US,56.7,clear sky,33.5443,-84.2338,
606,Kapuskasing,CA,39.2,few clouds,49.4169,-82.4331,
607,Khor,RU,52.97,overcast clouds,47.8861,134.9464,
608,Ellensburg,US,40.77,clear sky,46.9965,-120.5479,
609,Mount Isa,AU,83.97,scattered clouds,-20.7333,139.5,
610,Saldanha,ZA,53.65,few clouds,-33.0117,17.9442,
611,Pangoa,PE,66.7,overcast clouds,-12.1167,-73.0,
612,Grand Gaube,MU,82.38,scattered clouds,-20.0064,57.6608,
613,Mackenzie,CA,37.62,overcast clouds,55.2999,-123.1698,
614,Fort Nelson,CA,35.19,overcast clouds,58.8053,-122.7002,
615,Rocha,UY,52.88,scattered clouds,-34.4833,-54.3333,
616,Gaoyou,CN,73.69,clear sky,32.7858,119.4278,
617,Berdigestyakh,RU,39.52,light rain,62.0989,126.6992,
619,Ewa Beach,US,75.15,clear sky,21.3156,-158.0072,
620,Northfield,US,60.94,scattered clouds,44.4583,-93.1616,
621,Kutum,SD,87.03,overcast clouds,14.2,24.6667,
622,Villa De Reyes,MX,67.93,clear sky,21.8,-100.9333,
623,Slobozia,MD,63.21,scattered clouds,46.7281,29.7078,
624,Richards Bay,ZA,66.97,moderate rain,-28.783,32.0377,
625,Aleppo,SY,67.77,clear sky,36.25,37.5,
628,Banda Aceh,ID,86.81,broken clouds,5.5577,95.3222,
629,Russell,US,58.23,clear sky,32.3502,-85.1999,
630,Zhuhai,CN,82.18,scattered clouds,22.2769,113.5678,
631,Sola,VU,80.91,scattered clouds,-13.8833,167.55,
632,Clovis,US,60.69,scattered clouds,36.8252,-119.7029,
633,Praya,CV,70.34,few clouds,14.9215,-23.5087,
634,Rtishchevo,RU,57.72,clear sky,52.2604,43.7874,
635,Grindavik,IS,48.15,light rain,63.8424,-22.4338,
636,Tahe,CN,69.03,few clouds,52.3333,124.7333,
637,Kozulka,UA,64.98,few clouds,50.0351,23.797,
638,Pimentel,PE,64.44,overcast clouds,-6.8367,-79.9342,
639,Carutapera,BR,74.93,overcast clouds,-1.195,-46.02,
640,Suez,EG,79.27,overcast clouds,29.9737,32.5263,
641,Axim,GH,81.52,light rain,4.8699,-2.2405,
642,Cambui,BR,56.37,broken clouds,-22.6122,-46.0575,
643,Kiama,AU,64.99,few clouds,-34.6833,150.8667,
644,Puquio,PE,47.57,broken clouds,-14.7,-74.1333,
645,Tonshayevo,RU,60.46,scattered clouds,57.736,47.0127,
647,Shihezi,CN,85.01,clear sky,44.3,86.0333,
648,Palora,EC,64.9,light rain,-1.7,-77.9333,
649,Maceio,BR,72.84,broken clouds,-9.6658,-35.7353,
650,Inhambane,MZ,80.58,few clouds,-23.865,35.3833,
651,Malko Tarnovo,BG,58.71,broken clouds,41.9833,27.5333,
652,Abbeville,FR,59.25,overcast clouds,50.1,1.8333,
653,Maragogi,BR,74.48,broken clouds,-9.0122,-35.2225,
654,Felanitx,ES,71.46,clear sky,39.4696,3.1483,
655,Malartic,CA,33.91,clear sky,48.1335,-78.1328,
656,Luena,AO,74.07,overcast clouds,-11.7833,19.9167,
657,Trzebiatow,PL,56.05,few clouds,54.0615,15.2648,
658,Beyneu,KZ,67.33,light rain,45.3167,55.2,
659,Hasaki,JP,64.29,overcast clouds,35.7333,140.8333,
660,Wajid,SO,89.26,few clouds,3.8093,43.2471,
661,Dagda,LV,50.43,overcast clouds,56.0951,27.5372,
662,Moville,US,62.89,overcast clouds,42.4889,-96.0725,
663,Hammerfest,NO,32.45,overcast clouds,70.6634,23.6821,
664,Alexandria,EG,68.54,clear sky,31.2156,29.9553,
665,Nhulunbuy,AU,84.81,scattered clouds,-12.2333,136.7667,
666,Mayumba,GA,79.95,scattered clouds,-3.432,10.6554,
667,Severobaykalsk,RU,40.78,overcast clouds,55.65,109.3167,
668,Savannah Bight,HN,81.81,broken clouds,16.45,-85.85,
669,Cacador,BR,43.09,scattered clouds,-26.7753,-51.015,
670,Vytegra,RU,36.84,light rain,61.0064,36.4481,
672,Howard Springs,AU,89.98,clear sky,-12.497,131.047,
673,Beringovskiy,RU,32.92,overcast clouds,63.05,179.3167,
674,Faya,SA,79.32,clear sky,18.3851,42.4509,
